{
  "jeepneyRoutes": [
    {
      "routeName": "Route 1",
      "stops": [
        { "name": "Stop 1", "latitude": 15.1234, "longitude": 120.9876 },
        { "name": "Stop 2", "latitude": 15.2345, "longitude": 120.8765 }
      ]
    },
    {
      "routeName": "Route 2",
      "stops": [
        { "name": "Stop 1", "latitude": 15.3456, "longitude": 120.7654 },
        { "name": "Stop 2", "latitude": 15.4567, "longitude": 120.6543 }
      ]
    },
    {
      "routeName": "Route 3",
      "stops": [
        { "name": "Stop 1", "latitude": 15.3456, "longitude": 120.7654 },
        { "name": "Stop 2", "latitude": 15.4567, "longitude": 120.6543 }
      ]
    },
    {
      "routeName": "Route 4",
      "stops": [
        { "name": "Stop 1", "latitude": 15.3456, "longitude": 120.7654 },
        { "name": "Stop 2", "latitude": 15.4567, "longitude": 120.6543 }
      ]
    },
    {
      "routeName": "Route 5",
      "stops": [
        { "name": "Stop 1", "latitude": 15.3456, "longitude": 120.7654 },
        { "name": "Stop 2", "latitude": 15.4567, "longitude": 120.6543 }
      ]
    },
    {
      "routeName": "Route 6",
      "stops": [
        { "name": "Stop 1", "latitude": 15.3456, "longitude": 120.7654 },
        { "name": "Stop 2", "latitude": 15.4567, "longitude": 120.6543 }
      ]
    }
  ],
  "busRoutes": [
    {
      "routeName": "Bus Loop Northbound",
      "stops": [
        { "name": "SM City Clark Gate 1", "latitude": 15.167716, "longitude": 120.582248},
        { "name": "SM City Clark Flagpole Area", "latitude": 15.167017, "longitude": 120.580126 },
        { "name": "Mercedes Benz", "latitude": 15.166849, "longitude": 120.570899},
        { "name": "Aderans/Laus Group", "latitude": 15.167524, "longitude": 120.566492},
        { "name": "Friendship Gate", "latitude": 15.164361, "longitude": 120.549854},
        { "name": "Philexcel Gate", "latitude": 15.175374, "longitude": 120.534325 },
        { "name": "Clark Center", "latitude": 15.176794, "longitude": 120.528240 },
        { "name": "Bertaphil I", "latitude": 15.176438, "longitude": 120.525425 },
        { "name": "Clark Electric", "latitude": 15.176318, "longitude": 120.524045 },
        { "name": "Sapangbato/7-Eleven", "latitude": 15.176150, "longitude": 120.521944},
        { "name": "Amertron", "latitude": 15.176592, "longitude": 120.519536 },
        { "name": "Clark One Stop Government Center/D'Heights", "latitude": 15.183071, "longitude": 120.512133 },
        { "name": "CDC BOSS (2126)", "latitude": 15.178105, "longitude": 120.518072},
        { "name": "CDC Corporate Office", "latitude": 15.178726, "longitude": 120.518738 },
        { "name": "Parade Grounds/Children's Playground", "latitude": 15.180671, "longitude": 120.520006},
        { "name": "Barn Houses/Quest Hotel", "latitude": 15.181632, "longitude": 120.522427},
        { "name": "Clark Museum", "latitude": 15.182685, "longitude": 120.526142},
        { "name": "Royce Hotel & Casino", "latitude": 15.180395, "longitude": 120.529461 },
        { "name": "Filinvest Mimosa Plus (Need to check)", "latitude": 15.183942, "longitude": 120.527646 },
        { "name": "Widus Hotel/Hann Casino Resort", "latitude": 15.189450, "longitude": 120.524808},
        { "name": "St. Joseph the Worker", "latitude": 15.192365, "longitude": 120.525907 },
        { "name": "Puregold Clark/UP Clark", "latitude": 15.193712, "longitude": 120.530572 },
        { "name": "Centennial Road (Need to check)", "latitude": 15.195304, "longitude": 120.535778},
        { "name": "Texas Instruments/El Kabayo", "latitude": 15.199211, "longitude": 120.541200 },
        { "name": "Picnic Grounds/Dinosaur Island", "latitude": 15.205929, "longitude": 120.546710 },
        { "name": "Mabalacat Gate", "latitude": 15.221119, "longitude": 120.571465},
        { "name": "Clark Airport (Need to check)", "latitude": 15.197704, "longitude": 120.557411 }
      ]
    },
    {
      "routeName": "Bus Loop Southbound",
      "stops": [
        { "name": "Clark Airport (Need to check)", "latitude": 15.197704, "longitude": 120.557411 },
        { "name": "Mabalacat Gate", "latitude": 15.221119, "longitude": 120.571465},
        { "name": "Picnic Grounds/Dinosaur Island", "latitude": 15.205933, "longitude": 120.546707},
        { "name": "Texas Instruments/El Kabayo", "latitude": 15.200467, "longitude": 120.541536},
        { "name": "Centennial Road (Need to check)", "latitude": 15.195335, "longitude": 120.536261},
        { "name": "Puregold Clark/UP Clark", "latitude": 15.193985, "longitude": 120.531005},
        { "name": "National Museum Clark", "latitude": 15.192494, "longitude": 120.526143},
        { "name": "Midori Hotel/Hann Casino Resort", "latitude": 15.192480, "longitude": 120.524656},
        { "name": "Filinvest Mimosa Plus (Need to check)", "latitude": 15.183835, "longitude": 120.527403},
        { "name": "PLDT-Smart Clark", "latitude": 15.181615, "longitude": 120.528511},
        { "name": "Clark Museum", "latitude": 15.182105, "longitude": 120.526459},
        { "name": "Barn Houses/Quest Hotel", "latitude": 15.181682, "longitude": 120.522407},
        { "name": "Parade Grounds/Children's Playground", "latitude": 15.180696, "longitude": 120.519975},
        { "name": "CDC Corporate Office", "latitude": 15.179071, "longitude": 120.518564},
        { "name": "CDC BOSS (2126)", "latitude": 15.178092, "longitude": 120.517972},
        { "name": "Clark One Stop Government Center/D'Heights", "latitude": 15.183071, "longitude": 120.512133 },
        { "name": "Amertron", "latitude": 15.1764676, "longitude": 120.5194710},
        { "name": "Sapangbato/7-Eleven", "latitude": 15.175966, "longitude": 120.522035},
        { "name": "Clark Electric", "latitude": 15.176183, "longitude": 120.524052},
        { "name": "Bertaphil I", "latitude": 15.176310, "longitude": 120.525734 },
        { "name": "Clark Center", "latitude": 15.176630, "longitude": 120.528242},
        { "name": "Philexcel Gate", "latitude": 15.17475, "longitude": 120.53445},
        { "name": "Friendship Gate", "latitude": 15.163570, "longitude": 120.551080},
        { "name": "Don Juico Gate", "latitude": 15.167140, "longitude": 120.564457},
        { "name": "Clark Cityfront Steel Parking", "latitude": 15.166497, "longitude": 120.570884},
        { "name": "Clark Cityfront Mall", "latitude": 15.166412, "longitude": 120.580047},
        { "name": "SM City Clark Gate 1", "latitude": 15.167716, "longitude": 120.582248}
      ]
    }
  ]
}